{
  "type": "FeatureCollection",
  "features": [
    {
      "type": "Feature",
      "geometry": {
        "type": "Point",
        "coordinates": [
          174.76349,
          -36.84853
        ]
      },
      "properties": {
        "name": "Auckland",
        "country": "New Zealand",
        "region": "Auckland",
        "elevation_m": null,
        "population": 1530500,
        "feature_type": "seat of a first-order administrative division",
        "geoname_id": 2193733
      }
    },
    {
      "type": "Feature",
      "geometry": {
        "type": "Point",
        "coordinates": [
          172.63333,
          -43.53333
        ]
      },
      "properties": {
        "name": "Christchurch",
        "country": "New Zealand",
        "region": "Canterbury",
        "elevation_m": null,
        "population": 412000,
        "feature_type": "seat of a first-order administrative division",
        "geoname_id": 2192362
      }
    },
    {
      "type": "Feature",
      "geometry": {
        "type": "Point",
        "coordinates": [
          174.77557,
          -41.28664
        ]
      },
      "properties": {
        "name": "Wellington",
        "country": "New Zealand",
        "region": "Wellington Region",
        "elevation_m": null,
        "population": 381900,
        "feature_type": "capital of a political entity",
        "geoname_id": 2179537
      }
    },
    {
      "type": "Feature",
      "geometry": {
        "type": "Point",
        "coordinates": [
          174.87986,
          -36.99282
        ]
      },
      "properties": {
        "name": "Manukau",
        "country": "New Zealand",
        "region": "Auckland",
        "elevation_m": null,
        "population": 362000,
        "feature_type": "populated place",
        "geoname_id": 2187404
      }
    },
    {
      "type": "Feature",
      "geometry": {
        "type": "Point",
        "coordinates": [
          174.75,
          -36.8
        ]
      },
      "properties": {
        "name": "North Shore",
        "country": "New Zealand",
        "region": "Auckland",
        "elevation_m": null,
        "population": 258697,
        "feature_type": "section of populated place",
        "geoname_id": 2185964
      }
    },
    {
      "type": "Feature",
      "geometry": {
        "type": "Point",
        "coordinates": [
          175.28333,
          -37.78333
        ]
      },
      "properties": {
        "name": "Hamilton",
        "country": "New Zealand",
        "region": "Waikato Region",
        "elevation_m": null,
        "population": 189700,
        "feature_type": "seat of a first-order administrative division",
        "geoname_id": 2190324
      }
    },
    {
      "type": "Feature",
      "geometry": {
        "type": "Point",
        "coordinates": [
          176.16667,
          -37.68611
        ]
      },
      "properties": {
        "name": "Tauranga",
        "country": "New Zealand",
        "region": "Bay of Plenty",
        "elevation_m": null,
        "population": 155200,
        "feature_type": "seat of a second-order administrative division",
        "geoname_id": 2208032
      }
    },
    {
      "type": "Feature",
      "geometry": {
        "type": "Point",
        "coordinates": [
          170.50361,
          -45.87416
        ]
      },
      "properties": {
        "name": "Dunedin",
        "country": "New Zealand",
        "region": "Otago",
        "elevation_m": null,
        "population": 131800,
        "feature_type": "seat of a first-order administrative division",
        "geoname_id": 2191562
      }
    },
    {
      "type": "Feature",
      "geometry": {
        "type": "Point",
        "coordinates": [
          174.91667,
          -41.21667
        ]
      },
      "properties": {
        "name": "Lower Hutt",
        "country": "New Zealand",
        "region": "Wellington Region",
        "elevation_m": null,
        "population": 113400,
        "feature_type": "populated place",
        "geoname_id": 2188164
      }
    },
    {
      "type": "Feature",
      "geometry": {
        "type": "Point",
        "coordinates": [
          175.61113,
          -40.35636
        ]
      },
      "properties": {
        "name": "Palmerston North",
        "country": "New Zealand",
        "region": "Manawatu-Wanganui",
        "elevation_m": null,
        "population": 91300,
        "feature_type": "seat of a first-order administrative division",
        "geoname_id": 2185018
      }
    },
    {
      "type": "Feature",
      "geometry": {
        "type": "Point",
        "coordinates": [
          174.08333,
          -39.06667
        ]
      },
      "properties": {
        "name": "New Plymouth",
        "country": "New Zealand",
        "region": "Taranaki Region",
        "elevation_m": null,
        "population": 90300,
        "feature_type": "seat of a first-order administrative division",
        "geoname_id": 2186239
      }
    },
    {
      "type": "Feature",
      "geometry": {
        "type": "Point",
        "coordinates": [
          176.84918,
          -39.6381
        ]
      },
      "properties": {
        "name": "Hastings",
        "country": "New Zealand",
        "region": "Hawke's Bay Region",
        "elevation_m": null,
        "population": 89200,
        "feature_type": "populated place",
        "geoname_id": 2190224
      }
    },
    {
      "type": "Feature",
      "geometry": {
        "type": "Point",
        "coordinates": [
          176.91233,
          -39.4926
        ]
      },
      "properties": {
        "name": "Napier City",
        "country": "New Zealand",
        "region": "Hawke's Bay Region",
        "elevation_m": null,
        "population": 66800,
        "feature_type": "seat of a first-order administrative division",
        "geoname_id": 2186313
      }
    },
    {
      "type": "Feature",
      "geometry": {
        "type": "Point",
        "coordinates": [
          176.24516,
          -38.13874
        ]
      },
      "properties": {
        "name": "Rotorua",
        "country": "New Zealand",
        "region": "Bay of Plenty",
        "elevation_m": null,
        "population": 65901,
        "feature_type": "seat of a second-order administrative division",
        "geoname_id": 6241325
      }
    },
    {
      "type": "Feature",
      "geometry": {
        "type": "Point",
        "coordinates": [
          174.85,
          -41.13333
        ]
      },
      "properties": {
        "name": "Porirua",
        "country": "New Zealand",
        "region": "Wellington Region",
        "elevation_m": null,
        "population": 61800,
        "feature_type": "populated place",
        "geoname_id": 2184397
      }
    },
    {
      "type": "Feature",
      "geometry": {
        "type": "Point",
        "coordinates": [
          168.35,
          -46.4
        ]
      },
      "properties": {
        "name": "Invercargill",
        "country": "New Zealand",
        "region": "Southland",
        "elevation_m": null,
        "population": 57600,
        "feature_type": "seat of a first-order administrative division",
        "geoname_id": 2189529
      }
    },
    {
      "type": "Feature",
      "geometry": {
        "type": "Point",
        "coordinates": [
          174.84019,
          -36.9682
        ]
      },
      "properties": {
        "name": "Papatoetoe",
        "country": "New Zealand",
        "region": "Auckland",
        "elevation_m": null,
        "population": 54780,
        "feature_type": "populated place",
        "geoname_id": 6232008
      }
    },
    {
      "type": "Feature",
      "geometry": {
        "type": "Point",
        "coordinates": [
          173.28404,
          -41.27078
        ]
      },
      "properties": {
        "name": "Nelson",
        "country": "New Zealand",
        "region": "Nelson Region",
        "elevation_m": null,
        "population": 54400,
        "feature_type": "seat of a first-order administrative division",
        "geoname_id": 2186280
      }
    },
    {
      "type": "Feature",
      "geometry": {
        "type": "Point",
        "coordinates": [
          174.32391,
          -35.73167
        ]
      },
      "properties": {
        "name": "Whangarei",
        "country": "New Zealand",
        "region": "Northland",
        "elevation_m": null,
        "population": 50900,
        "feature_type": "seat of a first-order administrative division",
        "geoname_id": 6230919
      }
    },
    {
      "type": "Feature",
      "geometry": {
        "type": "Point",
        "coordinates": [
          175.05,
          -39.93333
        ]
      },
      "properties": {
        "name": "Whanganui",
        "country": "New Zealand",
        "region": "Manawatu-Wanganui",
        "elevation_m": null,
        "population": 48900,
        "feature_type": "populated place",
        "geoname_id": 2179670
      }
    },
    {
      "type": "Feature",
      "geometry": {
        "type": "Point",
        "coordinates": [
          175.0502,
          -41.13827
        ]
      },
      "properties": {
        "name": "Upper Hutt",
        "country": "New Zealand",
        "region": "Wellington Region",
        "elevation_m": null,
        "population": 47500,
        "feature_type": "populated place",
        "geoname_id": 6244895
      }
    },
    {
      "type": "Feature",
      "geometry": {
        "type": "Point",
        "coordinates": [
          174.88019,
          -37.0182
        ]
      },
      "properties": {
        "name": "Manurewa",
        "country": "New Zealand",
        "region": "Auckland",
        "elevation_m": null,
        "population": 40480,
        "feature_type": "populated place",
        "geoname_id": 6232064
      }
    },
    {
      "type": "Feature",
      "geometry": {
        "type": "Point",
        "coordinates": [
          178.00417,
          -38.65333
        ]
      },
      "properties": {
        "name": "Gisborne",
        "country": "New Zealand",
        "region": "Gisborne",
        "elevation_m": null,
        "population": 38300,
        "feature_type": "seat of a first-order administrative division",
        "geoname_id": 2206854
      }
    },
    {
      "type": "Feature",
      "geometry": {
        "type": "Point",
        "coordinates": [
          174.94212,
          -37.0646
        ]
      },
      "properties": {
        "name": "Papakura",
        "country": "New Zealand",
        "region": "Auckland",
        "elevation_m": null,
        "population": 35580,
        "feature_type": "populated place",
        "geoname_id": 2208329
      }
    },
    {
      "type": "Feature",
      "geometry": {
        "type": "Point",
        "coordinates": [
          172.38333,
          -43.58333
        ]
      },
      "properties": {
        "name": "Rolleston",
        "country": "New Zealand",
        "region": "Canterbury",
        "elevation_m": null,
        "population": 33200,
        "feature_type": "populated place",
        "geoname_id": 2183310
      }
    },
    {
      "type": "Feature",
      "geometry": {
        "type": "Point",
        "coordinates": [
          173.9528,
          -41.51603
        ]
      },
      "properties": {
        "name": "Blenheim",
        "country": "New Zealand",
        "region": "Marlborough",
        "elevation_m": null,
        "population": 30300,
        "feature_type": "seat of a first-order administrative division",
        "geoname_id": 6243926
      }
    },
    {
      "type": "Feature",
      "geometry": {
        "type": "Point",
        "coordinates": [
          175.01667,
          -40.91667
        ]
      },
      "properties": {
        "name": "Paraparaumu",
        "country": "New Zealand",
        "region": "Wellington Region",
        "elevation_m": null,
        "population": 29900,
        "feature_type": "populated place",
        "geoname_id": 2184904
      }
    },
    {
      "type": "Feature",
      "geometry": {
        "type": "Point",
        "coordinates": [
          171.25364,
          -44.39672
        ]
      },
      "properties": {
        "name": "Timaru",
        "country": "New Zealand",
        "region": "Canterbury",
        "elevation_m": null,
        "population": 29400,
        "feature_type": "populated place",
        "geoname_id": 2181133
      }
    },
    {
      "type": "Feature",
      "geometry": {
        "type": "Point",
        "coordinates": [
          175.6575,
          -40.95972
        ]
      },
      "properties": {
        "name": "Masterton",
        "country": "New Zealand",
        "region": "Wellington Region",
        "elevation_m": null,
        "population": 28700,
        "feature_type": "populated place",
        "geoname_id": 2206890
      }
    },
    {
      "type": "Feature",
      "geometry": {
        "type": "Point",
        "coordinates": [
          174.82389,
          -36.96587
        ]
      },
      "properties": {
        "name": "Mangere East",
        "country": "New Zealand",
        "region": "Auckland",
        "elevation_m": null,
        "population": 28540,
        "feature_type": "section of populated place",
        "geoname_id": 6231929
      }
    },
    {
      "type": "Feature",
      "geometry": {
        "type": "Point",
        "coordinates": [
          174.79819,
          -36.88041
        ]
      },
      "properties": {
        "name": "Remuera",
        "country": "New Zealand",
        "region": "Auckland",
        "elevation_m": null,
        "population": 27600,
        "feature_type": "populated place",
        "geoname_id": 6232305
      }
    },
    {
      "type": "Feature",
      "geometry": {
        "type": "Point",
        "coordinates": [
          174.7,
          -36.88333
        ]
      },
      "properties": {
        "name": "Avondale",
        "country": "New Zealand",
        "region": "Auckland",
        "elevation_m": null,
        "population": 26930,
        "feature_type": "populated place",
        "geoname_id": 2193703
      }
    },
    {
      "type": "Feature",
      "geometry": {
        "type": "Point",
        "coordinates": [
          176.08333,
          -38.68333
        ]
      },
      "properties": {
        "name": "Taupo",
        "country": "New Zealand",
        "region": "Waikato Region",
        "elevation_m": null,
        "population": 26600,
        "feature_type": "populated place",
        "geoname_id": 2181742
      }
    },
    {
      "type": "Feature",
      "geometry": {
        "type": "Point",
        "coordinates": [
          174.87019,
          -36.9482
        ]
      },
      "properties": {
        "name": "Otara",
        "country": "New Zealand",
        "region": "Auckland",
        "elevation_m": null,
        "population": 24420,
        "feature_type": "populated place",
        "geoname_id": 6232067
      }
    },
    {
      "type": "Feature",
      "geometry": {
        "type": "Point",
        "coordinates": [
          174.68704,
          -36.90694
        ]
      },
      "properties": {
        "name": "New Lynn",
        "country": "New Zealand",
        "region": "Auckland",
        "elevation_m": null,
        "population": 23910,
        "feature_type": "populated place",
        "geoname_id": 6232192
      }
    },
    {
      "type": "Feature",
      "geometry": {
        "type": "Point",
        "coordinates": [
          174.79875,
          -36.96807
        ]
      },
      "properties": {
        "name": "Mangere",
        "country": "New Zealand",
        "region": "Auckland",
        "elevation_m": null,
        "population": 23790,
        "feature_type": "populated place",
        "geoname_id": 2187454
      }
    },
    {
      "type": "Feature",
      "geometry": {
        "type": "Point",
        "coordinates": [
          174.62019,
          -36.8282
        ]
      },
      "properties": {
        "name": "Massey East",
        "country": "New Zealand",
        "region": "Auckland",
        "elevation_m": null,
        "population": 22210,
        "feature_type": "section of populated place",
        "geoname_id": 6232326
      }
    },
    {
      "type": "Feature",
      "geometry": {
        "type": "Point",
        "coordinates": [
          174.61019,
          -36.8382
        ]
      },
      "properties": {
        "name": "Massey",
        "country": "New Zealand",
        "region": "Auckland",
        "elevation_m": null,
        "population": 22210,
        "feature_type": "section of populated place",
        "geoname_id": 6232390
      }
    },
    {
      "type": "Feature",
      "geometry": {
        "type": "Point",
        "coordinates": [
          174.95,
          -37.2
        ]
      },
      "properties": {
        "name": "Pukekohe East",
        "country": "New Zealand",
        "region": "Auckland",
        "elevation_m": null,
        "population": 21438,
        "feature_type": "populated place",
        "geoname_id": 2184155
      }
    },
    {
      "type": "Feature",
      "geometry": {
        "type": "Point",
        "coordinates": [
          171.73011,
          -43.89834
        ]
      },
      "properties": {
        "name": "Ashburton",
        "country": "New Zealand",
        "region": "Canterbury",
        "elevation_m": null,
        "population": 21300,
        "feature_type": "populated place",
        "geoname_id": 6217081
      }
    },
    {
      "type": "Feature",
      "geometry": {
        "type": "Point",
        "coordinates": [
          174.95,
          -41.26667
        ]
      },
      "properties": {
        "name": "Wainuiomata",
        "country": "New Zealand",
        "region": "Wellington Region",
        "elevation_m": null,
        "population": 20250,
        "feature_type": "populated place",
        "geoname_id": 2180118
      }
    },
    {
      "type": "Feature",
      "geometry": {
        "type": "Point",
        "coordinates": [
          174.77059,
          -36.88745
        ]
      },
      "properties": {
        "name": "Epsom",
        "country": "New Zealand",
        "region": "Auckland",
        "elevation_m": null,
        "population": 20200,
        "feature_type": "section of populated place",
        "geoname_id": 6232235
      }
    },
    {
      "type": "Feature",
      "geometry": {
        "type": "Point",
        "coordinates": [
          173.23333,
          -41.31667
        ]
      },
      "properties": {
        "name": "Stoke",
        "country": "New Zealand",
        "region": "Nelson Region",
        "elevation_m": null,
        "population": 19850,
        "feature_type": "populated place",
        "geoname_id": 2182311
      }
    },
    {
      "type": "Feature",
      "geometry": {
        "type": "Point",
        "coordinates": [
          175.275,
          -40.63333
        ]
      },
      "properties": {
        "name": "Levin",
        "country": "New Zealand",
        "region": "Manawatu-Wanganui",
        "elevation_m": null,
        "population": 19789,
        "feature_type": "populated place",
        "geoname_id": 2206371
      }
    },
    {
      "type": "Feature",
      "geometry": {
        "type": "Point",
        "coordinates": [
          173.18333,
          -41.33333
        ]
      },
      "properties": {
        "name": "Richmond",
        "country": "New Zealand",
        "region": "Tasman District",
        "elevation_m": null,
        "population": 19700,
        "feature_type": "seat of a first-order administrative division",
        "geoname_id": 2183472
      }
    },
    {
      "type": "Feature",
      "geometry": {
        "type": "Point",
        "coordinates": [
          172.58356,
          -43.30437
        ]
      },
      "properties": {
        "name": "Rangiora",
        "country": "New Zealand",
        "region": "Canterbury",
        "elevation_m": null,
        "population": 19150,
        "feature_type": "seat of a second-order administrative division",
        "geoname_id": 6220565
      }
    },
    {
      "type": "Feature",
      "geometry": {
        "type": "Point",
        "coordinates": [
          174.61975,
          -36.88012
        ]
      },
      "properties": {
        "name": "Henderson",
        "country": "New Zealand",
        "region": "Auckland",
        "elevation_m": null,
        "population": 18770,
        "feature_type": "section of populated place",
        "geoname_id": 6232338
      }
    },
    {
      "type": "Feature",
      "geometry": {
        "type": "Point",
        "coordinates": [
          176.98545,
          -37.95855
        ]
      },
      "properties": {
        "name": "Whakatane",
        "country": "New Zealand",
        "region": "Bay of Plenty",
        "elevation_m": null,
        "population": 18602,
        "feature_type": "seat of a first-order administrative division",
        "geoname_id": 2208330
      }
    },
    {
      "type": "Feature",
      "geometry": {
        "type": "Point",
        "coordinates": [
          174.84019,
          -36.9382
        ]
      },
      "properties": {
        "name": "Otahuhu",
        "country": "New Zealand",
        "region": "Auckland",
        "elevation_m": null,
        "population": 17780,
        "feature_type": "populated place",
        "geoname_id": 6232009
      }
    },
    {
      "type": "Feature",
      "geometry": {
        "type": "Point",
        "coordinates": [
          174.64768,
          -36.86472
        ]
      },
      "properties": {
        "name": "Te Atatu South",
        "country": "New Zealand",
        "region": "Auckland",
        "elevation_m": null,
        "population": 17240,
        "feature_type": "section of populated place",
        "geoname_id": 6232330
      }
    },
    {
      "type": "Feature",
      "geometry": {
        "type": "Point",
        "coordinates": [
          174.62019,
          -36.8582
        ]
      },
      "properties": {
        "name": "Lincoln",
        "country": "New Zealand",
        "region": "Auckland",
        "elevation_m": null,
        "population": 17240,
        "feature_type": "section of populated place",
        "geoname_id": 6232336
      }
    },
    {
      "type": "Feature",
      "geometry": {
        "type": "Point",
        "coordinates": [
          174.92815,
          -37.0393
        ]
      },
      "properties": {
        "name": "Takanini",
        "country": "New Zealand",
        "region": "Auckland",
        "elevation_m": null,
        "population": 17060,
        "feature_type": "populated place",
        "geoname_id": 6231568
      }
    },
    {
      "type": "Feature",
      "geometry": {
        "type": "Point",
        "coordinates": [
          174.76204,
          -36.88158
        ]
      },
      "properties": {
        "name": "Mt Eden",
        "country": "New Zealand",
        "region": "Auckland",
        "elevation_m": null,
        "population": 15650,
        "feature_type": "populated place",
        "geoname_id": 6232237
      }
    },
    {
      "type": "Feature",
      "geometry": {
        "type": "Point",
        "coordinates": [
          174.65584,
          -36.93754
        ]
      },
      "properties": {
        "name": "Titirangi",
        "country": "New Zealand",
        "region": "Auckland",
        "elevation_m": null,
        "population": 15490,
        "feature_type": "section of populated place",
        "geoname_id": 6232280
      }
    },
    {
      "type": "Feature",
      "geometry": {
        "type": "Point",
        "coordinates": [
          174.74141,
          -41.28374
        ]
      },
      "properties": {
        "name": "Karori",
        "country": "New Zealand",
        "region": "Wellington Region",
        "elevation_m": null,
        "population": 15380,
        "feature_type": "populated place",
        "geoname_id": 2189028
      }
    },
    {
      "type": "Feature",
      "geometry": {
        "type": "Point",
        "coordinates": [
          175.2902,
          -37.78821
        ]
      },
      "properties": {
        "name": "Hamilton East",
        "country": "New Zealand",
        "region": "Waikato Region",
        "elevation_m": null,
        "population": 15300,
        "feature_type": "section of populated place",
        "geoname_id": 6249340
      }
    },
    {
      "type": "Feature",
      "geometry": {
        "type": "Point",
        "coordinates": [
          174.65223,
          -36.84103
        ]
      },
      "properties": {
        "name": "Te Atatu Peninsula",
        "country": "New Zealand",
        "region": "Auckland",
        "elevation_m": null,
        "population": 15200,
        "feature_type": "section of populated place",
        "geoname_id": 6232329
      }
    },
    {
      "type": "Feature",
      "geometry": {
        "type": "Point",
        "coordinates": [
          175.4402,
          -37.87822
        ]
      },
      "properties": {
        "name": "Cambridge",
        "country": "New Zealand",
        "region": "Waikato Region",
        "elevation_m": null,
        "population": 15192,
        "feature_type": "populated place",
        "geoname_id": 6240770
      }
    },
    {
      "type": "Feature",
      "geometry": {
        "type": "Point",
        "coordinates": [
          174.88333,
          -37.01667
        ]
      },
      "properties": {
        "name": "Homai",
        "country": "New Zealand",
        "region": "Auckland",
        "elevation_m": null,
        "population": 15000,
        "feature_type": "populated place",
        "geoname_id": 2189854
      }
    },
    {
      "type": "Feature",
      "geometry": {
        "type": "Point",
        "coordinates": [
          176.88333,
          -39.66667
        ]
      },
      "properties": {
        "name": "Havelock North",
        "country": "New Zealand",
        "region": "Hawke's Bay Region",
        "elevation_m": null,
        "population": 14900,
        "feature_type": "populated place",
        "geoname_id": 2190169
      }
    },
    {
      "type": "Feature",
      "geometry": {
        "type": "Point",
        "coordinates": [
          170.34722,
          -45.875
        ]
      },
      "properties": {
        "name": "Mosgiel",
        "country": "New Zealand",
        "region": "Otago",
        "elevation_m": null,
        "population": 14800,
        "feature_type": "populated place",
        "geoname_id": 2208241
      }
    },
    {
      "type": "Feature",
      "geometry": {
        "type": "Point",
        "coordinates": [
          174.77727,
          -41.294
        ]
      },
      "properties": {
        "name": "Te Aro",
        "country": "New Zealand",
        "region": "Wellington Region",
        "elevation_m": null,
        "population": 14600,
        "feature_type": "section of populated place",
        "geoname_id": 10173827
      }
    },
    {
      "type": "Feature",
      "geometry": {
        "type": "Point",
        "coordinates": [
          175.86667,
          -38.23333
        ]
      },
      "properties": {
        "name": "Tokoroa",
        "country": "New Zealand",
        "region": "Waikato Region",
        "elevation_m": null,
        "population": 14500,
        "feature_type": "populated place",
        "geoname_id": 2180995
      }
    },
    {
      "type": "Feature",
      "geometry": {
        "type": "Point",
        "coordinates": [
          174.70019,
          -36.9182
        ]
      },
      "properties": {
        "name": "Blockhouse Bay",
        "country": "New Zealand",
        "region": "Auckland",
        "elevation_m": null,
        "population": 14500,
        "feature_type": "section of populated place",
        "geoname_id": 6232191
      }
    },
    {
      "type": "Feature",
      "geometry": {
        "type": "Point",
        "coordinates": [
          175.3302,
          -38.00822
        ]
      },
      "properties": {
        "name": "Te Awamutu",
        "country": "New Zealand",
        "region": "Waikato Region",
        "elevation_m": null,
        "population": 14000,
        "feature_type": "populated place",
        "geoname_id": 6240801
      }
    },
    {
      "type": "Feature",
      "geometry": {
        "type": "Point",
        "coordinates": [
          172.64013,
          -43.37832
        ]
      },
      "properties": {
        "name": "Kaiapoi",
        "country": "New Zealand",
        "region": "Canterbury",
        "elevation_m": null,
        "population": 13550,
        "feature_type": "populated place",
        "geoname_id": 6220587
      }
    },
    {
      "type": "Feature",
      "geometry": {
        "type": "Point",
        "coordinates": [
          175.06667,
          -40.88333
        ]
      },
      "properties": {
        "name": "Waikanae",
        "country": "New Zealand",
        "region": "Wellington Region",
        "elevation_m": null,
        "population": 13300,
        "feature_type": "populated place",
        "geoname_id": 2180320
      }
    },
    {
      "type": "Feature",
      "geometry": {
        "type": "Point",
        "coordinates": [
          174.75019,
          -36.9182
        ]
      },
      "properties": {
        "name": "Hillsborough",
        "country": "New Zealand",
        "region": "Auckland",
        "elevation_m": null,
        "population": 13260,
        "feature_type": "section of populated place",
        "geoname_id": 6232206
      }
    },
    {
      "type": "Feature",
      "geometry": {
        "type": "Point",
        "coordinates": [
          172.56667,
          -43.58333
        ]
      },
      "properties": {
        "name": "Halswell",
        "country": "New Zealand",
        "region": "Canterbury",
        "elevation_m": null,
        "population": 13200,
        "feature_type": "populated place",
        "geoname_id": 2190329
      }
    },
    {
      "type": "Feature",
      "geometry": {
        "type": "Point",
        "coordinates": [
          169.15,
          -44.7
        ]
      },
      "properties": {
        "name": "Wanaka",
        "country": "New Zealand",
        "region": "Otago",
        "elevation_m": null,
        "population": 13100,
        "feature_type": "populated place",
        "geoname_id": 2184707
      }
    },
    {
      "type": "Feature",
      "geometry": {
        "type": "Point",
        "coordinates": [
          168.94357,
          -46.10282
        ]
      },
      "properties": {
        "name": "Gore",
        "country": "New Zealand",
        "region": "Southland",
        "elevation_m": null,
        "population": 13050,
        "feature_type": "populated place",
        "geoname_id": 6201424
      }
    },
    {
      "type": "Feature",
      "geometry": {
        "type": "Point",
        "coordinates": [
          170.97087,
          -45.09758
        ]
      },
      "properties": {
        "name": "Oamaru",
        "country": "New Zealand",
        "region": "Otago",
        "elevation_m": null,
        "population": 13000,
        "feature_type": "populated place",
        "geoname_id": 6215045
      }
    },
    {
      "type": "Feature",
      "geometry": {
        "type": "Point",
        "coordinates": [
          176.85,
          -39.53333
        ]
      },
      "properties": {
        "name": "Taradale",
        "country": "New Zealand",
        "region": "Hawke's Bay Region",
        "elevation_m": null,
        "population": 12940,
        "feature_type": "section of populated place",
        "geoname_id": 6246634
      }
    },
    {
      "type": "Feature",
      "geometry": {
        "type": "Point",
        "coordinates": [
          174.73019,
          -36.8882
        ]
      },
      "properties": {
        "name": "Sandringham",
        "country": "New Zealand",
        "region": "Auckland",
        "elevation_m": null,
        "population": 12930,
        "feature_type": "section of populated place",
        "geoname_id": 6232242
      }
    },
    {
      "type": "Feature",
      "geometry": {
        "type": "Point",
        "coordinates": [
          174.78019,
          -36.9182
        ]
      },
      "properties": {
        "name": "Onehunga",
        "country": "New Zealand",
        "region": "Auckland",
        "elevation_m": null,
        "population": 12910,
        "feature_type": "populated place",
        "geoname_id": 6232212
      }
    },
    {
      "type": "Feature",
      "geometry": {
        "type": "Point",
        "coordinates": [
          174.679,
          -36.581
        ]
      },
      "properties": {
        "name": "Orewa",
        "country": "New Zealand",
        "region": "Auckland",
        "elevation_m": null,
        "population": 12630,
        "feature_type": "populated place",
        "geoname_id": 2185445
      }
    },
    {
      "type": "Feature",
      "geometry": {
        "type": "Point",
        "coordinates": [
          174.77583,
          -36.79167
        ]
      },
      "properties": {
        "name": "Takapuna",
        "country": "New Zealand",
        "region": "Auckland",
        "elevation_m": null,
        "population": 12470,
        "feature_type": "populated place",
        "geoname_id": 2207740
      }
    },
    {
      "type": "Feature",
      "geometry": {
        "type": "Point",
        "coordinates": [
          174.7,
          -36.71667
        ]
      },
      "properties": {
        "name": "Albany",
        "country": "New Zealand",
        "region": "Auckland",
        "elevation_m": null,
        "population": 12450,
        "feature_type": "populated place",
        "geoname_id": 2194046
      }
    },
    {
      "type": "Feature",
      "geometry": {
        "type": "Point",
        "coordinates": [
          174.8902,
          -41.10827
        ]
      },
      "properties": {
        "name": "Whitby",
        "country": "New Zealand",
        "region": "Wellington Region",
        "elevation_m": null,
        "population": 12230,
        "feature_type": "section of populated place",
        "geoname_id": 6244914
      }
    },
    {
      "type": "Feature",
      "geometry": {
        "type": "Point",
        "coordinates": [
          174.80295,
          -41.22132
        ]
      },
      "properties": {
        "name": "Johnsonville",
        "country": "New Zealand",
        "region": "Wellington Region",
        "elevation_m": null,
        "population": 12110,
        "feature_type": "populated place",
        "geoname_id": 2189397
      }
    },
    {
      "type": "Feature",
      "geometry": {
        "type": "Point",
        "coordinates": [
          174.61019,
          -36.8182
        ]
      },
      "properties": {
        "name": "West Harbour",
        "country": "New Zealand",
        "region": "Auckland",
        "elevation_m": null,
        "population": 12060,
        "feature_type": "section of populated place",
        "geoname_id": 6232324
      }
    },
    {
      "type": "Feature",
      "geometry": {
        "type": "Point",
        "coordinates": [
          174.93174,
          -36.89359
        ]
      },
      "properties": {
        "name": "Howick",
        "country": "New Zealand",
        "region": "Auckland",
        "elevation_m": null,
        "population": 11980,
        "feature_type": "populated place",
        "geoname_id": 2189715
      }
    },
    {
      "type": "Feature",
      "geometry": {
        "type": "Point",
        "coordinates": [
          172.55,
          -43.55
        ]
      },
      "properties": {
        "name": "Wigram",
        "country": "New Zealand",
        "region": "Canterbury",
        "elevation_m": null,
        "population": 11900,
        "feature_type": "populated place",
        "geoname_id": 2179089
      }
    },
    {
      "type": "Feature",
      "geometry": {
        "type": "Point",
        "coordinates": [
          174.73695,
          -36.86489
        ]
      },
      "properties": {
        "name": "Grey Lynn",
        "country": "New Zealand",
        "region": "Auckland",
        "elevation_m": null,
        "population": 11880,
        "feature_type": "section of populated place",
        "geoname_id": 6232260
      }
    },
    {
      "type": "Feature",
      "geometry": {
        "type": "Point",
        "coordinates": [
          175.63379,
          -40.3626
        ]
      },
      "properties": {
        "name": "Hokowhitu",
        "country": "New Zealand",
        "region": "Manawatu-Wanganui",
        "elevation_m": null,
        "population": 11730,
        "feature_type": "section of populated place",
        "geoname_id": 6227739
      }
    },
    {
      "type": "Feature",
      "geometry": {
        "type": "Point",
        "coordinates": [
          172.59013,
          -43.52833
        ]
      },
      "properties": {
        "name": "Riccarton",
        "country": "New Zealand",
        "region": "Canterbury",
        "elevation_m": null,
        "population": 11650,
        "feature_type": "section of populated place",
        "geoname_id": 6220351
      }
    },
    {
      "type": "Feature",
      "geometry": {
        "type": "Point",
        "coordinates": [
          174.73019,
          -36.7882
        ]
      },
      "properties": {
        "name": "Hillcrest",
        "country": "New Zealand",
        "region": "Auckland",
        "elevation_m": null,
        "population": 11490,
        "feature_type": "section of populated place",
        "geoname_id": 6232152
      }
    },
    {
      "type": "Feature",
      "geometry": {
        "type": "Point",
        "coordinates": [
          173.95018,
          -41.52828
        ]
      },
      "properties": {
        "name": "Redwoodtown",
        "country": "New Zealand",
        "region": "Marlborough",
        "elevation_m": null,
        "population": 11210,
        "feature_type": "section of populated place",
        "geoname_id": 6243930
      }
    },
    {
      "type": "Feature",
      "geometry": {
        "type": "Point",
        "coordinates": [
          176.78021,
          -39.61824
        ]
      },
      "properties": {
        "name": "Flaxmere",
        "country": "New Zealand",
        "region": "Hawke's Bay Region",
        "elevation_m": null,
        "population": 11142,
        "feature_type": "section of populated place",
        "geoname_id": 6246742
      }
    },
    {
      "type": "Feature",
      "geometry": {
        "type": "Point",
        "coordinates": [
          174.8,
          -36.93333
        ]
      },
      "properties": {
        "name": "Favona",
        "country": "New Zealand",
        "region": "Auckland",
        "elevation_m": null,
        "population": 11110,
        "feature_type": "populated place",
        "geoname_id": 2191177
      }
    },
    {
      "type": "Feature",
      "geometry": {
        "type": "Point",
        "coordinates": [
          174.68019,
          -36.7882
        ]
      },
      "properties": {
        "name": "Beach Haven",
        "country": "New Zealand",
        "region": "Auckland",
        "elevation_m": null,
        "population": 11000,
        "feature_type": "section of populated place",
        "geoname_id": 6232141
      }
    },
    {
      "type": "Feature",
      "geometry": {
        "type": "Point",
        "coordinates": [
          174.9802,
          -41.17827
        ]
      },
      "properties": {
        "name": "Stokes Valley",
        "country": "New Zealand",
        "region": "Wellington Region",
        "elevation_m": null,
        "population": 10770,
        "feature_type": "section of populated place",
        "geoname_id": 6244870
      }
    },
    {
      "type": "Feature",
      "geometry": {
        "type": "Point",
        "coordinates": [
          174.73666,
          -36.71926
        ]
      },
      "properties": {
        "name": "Browns Bay",
        "country": "New Zealand",
        "region": "Auckland",
        "elevation_m": null,
        "population": 10760,
        "feature_type": "section of populated place",
        "geoname_id": 6231794
      }
    },
    {
      "type": "Feature",
      "geometry": {
        "type": "Point",
        "coordinates": [
          172.69013,
          -43.47833
        ]
      },
      "properties": {
        "name": "Parklands",
        "country": "New Zealand",
        "region": "Canterbury",
        "elevation_m": null,
        "population": 10760,
        "feature_type": "section of populated place",
        "geoname_id": 6220404
      }
    },
    {
      "type": "Feature",
      "geometry": {
        "type": "Point",
        "coordinates": [
          174.74773,
          -36.76447
        ]
      },
      "properties": {
        "name": "Forrest Hill",
        "country": "New Zealand",
        "region": "Auckland",
        "elevation_m": null,
        "population": 10750,
        "feature_type": "section of populated place",
        "geoname_id": 6231811
      }
    },
    {
      "type": "Feature",
      "geometry": {
        "type": "Point",
        "coordinates": [
          174.72019,
          -36.8082
        ]
      },
      "properties": {
        "name": "Birkenhead",
        "country": "New Zealand",
        "region": "Auckland",
        "elevation_m": null,
        "population": 10720,
        "feature_type": "section of populated place",
        "geoname_id": 6232146
      }
    },
    {
      "type": "Feature",
      "geometry": {
        "type": "Point",
        "coordinates": [
          176.33021,
          -37.77822
        ]
      },
      "properties": {
        "name": "Te Puke",
        "country": "New Zealand",
        "region": "Bay of Plenty",
        "elevation_m": null,
        "population": 10500,
        "feature_type": "populated place",
        "geoname_id": 6245055
      }
    },
    {
      "type": "Feature",
      "geometry": {
        "type": "Point",
        "coordinates": [
          168.66271,
          -45.03023
        ]
      },
      "properties": {
        "name": "Queenstown",
        "country": "New Zealand",
        "region": "Otago",
        "elevation_m": null,
        "population": 10442,
        "feature_type": "populated place",
        "geoname_id": 6204696
      }
    },
    {
      "type": "Feature",
      "geometry": {
        "type": "Point",
        "coordinates": [
          174.74019,
          -36.8882
        ]
      },
      "properties": {
        "name": "Balmoral",
        "country": "New Zealand",
        "region": "Auckland",
        "elevation_m": null,
        "population": 10390,
        "feature_type": "section of populated place",
        "geoname_id": 6232236
      }
    },
    {
      "type": "Feature",
      "geometry": {
        "type": "Point",
        "coordinates": [
          174.28333,
          -39.59167
        ]
      },
      "properties": {
        "name": "Hawera",
        "country": "New Zealand",
        "region": "Taranaki Region",
        "elevation_m": null,
        "population": 10350,
        "feature_type": "populated place",
        "geoname_id": 2206359
      }
    },
    {
      "type": "Feature",
      "geometry": {
        "type": "Point",
        "coordinates": [
          175.5302,
          -41.01827
        ]
      },
      "properties": {
        "name": "Carterton",
        "country": "New Zealand",
        "region": "Wellington Region",
        "elevation_m": null,
        "population": 10300,
        "feature_type": "populated place",
        "geoname_id": 6226000
      }
    },
    {
      "type": "Feature",
      "geometry": {
        "type": "Point",
        "coordinates": [
          172.55013,
          -43.50833
        ]
      },
      "properties": {
        "name": "Avonhead",
        "country": "New Zealand",
        "region": "Canterbury",
        "elevation_m": null,
        "population": 10240,
        "feature_type": "section of populated place",
        "geoname_id": 6220345
      }
    },
    {
      "type": "Feature",
      "geometry": {
        "type": "Point",
        "coordinates": [
          172.61689,
          -43.5567
        ]
      },
      "properties": {
        "name": "Spreydon",
        "country": "New Zealand",
        "region": "Canterbury",
        "elevation_m": null,
        "population": 10210,
        "feature_type": "populated place",
        "geoname_id": 2182444
      }
    },
    {
      "type": "Feature",
      "geometry": {
        "type": "Point",
        "coordinates": [
          174.77935,
          -41.31115
        ]
      },
      "properties": {
        "name": "Newtown",
        "country": "New Zealand",
        "region": "Wellington Region",
        "elevation_m": null,
        "population": 10130,
        "feature_type": "populated place",
        "geoname_id": 6244789
      }
    },
    {
      "type": "Feature",
      "geometry": {
        "type": "Point",
        "coordinates": [
          172.57013,
          -43.51833
        ]
      },
      "properties": {
        "name": "Ilam",
        "country": "New Zealand",
        "region": "Canterbury",
        "elevation_m": null,
        "population": 10100,
        "feature_type": "section of populated place",
        "geoname_id": 6220348
      }
    },
    {
      "type": "Feature",
      "geometry": {
        "type": "Point",
        "coordinates": [
          174.91667,
          -36.88333
        ]
      },
      "properties": {
        "name": "Pakuranga",
        "country": "New Zealand",
        "region": "Auckland",
        "elevation_m": null,
        "population": 10040,
        "feature_type": "populated place",
        "geoname_id": 6232082
      }
    },
    {
      "type": "Feature",
      "geometry": {
        "type": "Point",
        "coordinates": [
          174.61019,
          -36.8782
        ]
      },
      "properties": {
        "name": "Western Heights",
        "country": "New Zealand",
        "region": "Auckland",
        "elevation_m": null,
        "population": 9940,
        "feature_type": "section of populated place",
        "geoname_id": 6232339
      }
    },
    {
      "type": "Feature",
      "geometry": {
        "type": "Point",
        "coordinates": [
          174.88019,
          -36.9082
        ]
      },
      "properties": {
        "name": "Pakuranga Heights",
        "country": "New Zealand",
        "region": "Auckland",
        "elevation_m": null,
        "population": 9930,
        "feature_type": "section of populated place",
        "geoname_id": 6232074
      }
    },
    {
      "type": "Feature",
      "geometry": {
        "type": "Point",
        "coordinates": [
          174.73489,
          -37.24806
        ]
      },
      "properties": {
        "name": "Waiuku",
        "country": "New Zealand",
        "region": "Auckland",
        "elevation_m": null,
        "population": 9860,
        "feature_type": "populated place",
        "geoname_id": 2179756
      }
    },
    {
      "type": "Feature",
      "geometry": {
        "type": "Point",
        "coordinates": [
          172.58013,
          -43.47833
        ]
      },
      "properties": {
        "name": "Bishopdale",
        "country": "New Zealand",
        "region": "Canterbury",
        "elevation_m": null,
        "population": 9850,
        "feature_type": "section of populated place",
        "geoname_id": 6220355
      }
    },
    {
      "type": "Feature",
      "geometry": {
        "type": "Point",
        "coordinates": [
          174.89019,
          -37.0382
        ]
      },
      "properties": {
        "name": "Wattle Downs",
        "country": "New Zealand",
        "region": "Auckland",
        "elevation_m": null,
        "population": 9840,
        "feature_type": "section of populated place",
        "geoname_id": 6231957
      }
    },
    {
      "type": "Feature",
      "geometry": {
        "type": "Point",
        "coordinates": [
          170.53333,
          -45.85
        ]
      },
      "properties": {
        "name": "North East Valley",
        "country": "New Zealand",
        "region": "Otago",
        "elevation_m": null,
        "population": 9830,
        "feature_type": "populated place",
        "geoname_id": 2185994
      }
    },
    {
      "type": "Feature",
      "geometry": {
        "type": "Point",
        "coordinates": [
          174.81019,
          -36.8982
        ]
      },
      "properties": {
        "name": "Ellerslie",
        "country": "New Zealand",
        "region": "Auckland",
        "elevation_m": null,
        "population": 9820,
        "feature_type": "section of populated place",
        "geoname_id": 6232229
      }
    },
    {
      "type": "Feature",
      "geometry": {
        "type": "Point",
        "coordinates": [
          172.56013,
          -43.49833
        ]
      },
      "properties": {
        "name": "Burnside",
        "country": "New Zealand",
        "region": "Canterbury",
        "elevation_m": null,
        "population": 9810,
        "feature_type": "section of populated place",
        "geoname_id": 6220346
      }
    },
    {
      "type": "Feature",
      "geometry": {
        "type": "Point",
        "coordinates": [
          172.59013,
          -43.49833
        ]
      },
      "properties": {
        "name": "Bryndwr",
        "country": "New Zealand",
        "region": "Canterbury",
        "elevation_m": null,
        "population": 9760,
        "feature_type": "section of populated place",
        "geoname_id": 6220354
      }
    },
    {
      "type": "Feature",
      "geometry": {
        "type": "Point",
        "coordinates": [
          174.86019,
          -36.8682
        ]
      },
      "properties": {
        "name": "Glen Innes",
        "country": "New Zealand",
        "region": "Auckland",
        "elevation_m": null,
        "population": 9730,
        "feature_type": "section of populated place",
        "geoname_id": 6232302
      }
    },
    {
      "type": "Feature",
      "geometry": {
        "type": "Point",
        "coordinates": [
          174.94019,
          -41.19827
        ]
      },
      "properties": {
        "name": "Naenae",
        "country": "New Zealand",
        "region": "Wellington Region",
        "elevation_m": null,
        "population": 9720,
        "feature_type": "section of populated place",
        "geoname_id": 6244869
      }
    },
    {
      "type": "Feature",
      "geometry": {
        "type": "Point",
        "coordinates": [
          175.5202,
          -37.64821
        ]
      },
      "properties": {
        "name": "Morrinsville",
        "country": "New Zealand",
        "region": "Waikato Region",
        "elevation_m": null,
        "population": 9710,
        "feature_type": "populated place",
        "geoname_id": 6235745
      }
    },
    {
      "type": "Feature",
      "geometry": {
        "type": "Point",
        "coordinates": [
          174.70459,
          -36.79718
        ]
      },
      "properties": {
        "name": "Birkdale",
        "country": "New Zealand",
        "region": "Auckland",
        "elevation_m": null,
        "population": 9710,
        "feature_type": "section of populated place",
        "geoname_id": 6232142
      }
    },
    {
      "type": "Feature",
      "geometry": {
        "type": "Point",
        "coordinates": [
          174.82613,
          -41.17038
        ]
      },
      "properties": {
        "name": "Tawa",
        "country": "New Zealand",
        "region": "Wellington Region",
        "elevation_m": null,
        "population": 9670,
        "feature_type": "section of populated place",
        "geoname_id": 2181688
      }
    },
    {
      "type": "Feature",
      "geometry": {
        "type": "Point",
        "coordinates": [
          172.60766,
          -43.56444
        ]
      },
      "properties": {
        "name": "Hoon Hay",
        "country": "New Zealand",
        "region": "Canterbury",
        "elevation_m": null,
        "population": 9510,
        "feature_type": "section of populated place",
        "geoname_id": 6220937
      }
    },
    {
      "type": "Feature",
      "geometry": {
        "type": "Point",
        "coordinates": [
          174.90019,
          -36.8582
        ]
      },
      "properties": {
        "name": "Bucklands Beach",
        "country": "New Zealand",
        "region": "Auckland",
        "elevation_m": null,
        "population": 9460,
        "feature_type": "section of populated place",
        "geoname_id": 6232092
      }
    },
    {
      "type": "Feature",
      "geometry": {
        "type": "Point",
        "coordinates": [
          171.2,
          -42.46667
        ]
      },
      "properties": {
        "name": "Greymouth",
        "country": "New Zealand",
        "region": "West Coast",
        "elevation_m": null,
        "population": 9419,
        "feature_type": "seat of a first-order administrative division",
        "geoname_id": 2206895
      }
    },
    {
      "type": "Feature",
      "geometry": {
        "type": "Point",
        "coordinates": [
          176.10861,
          -37.69496
        ]
      },
      "properties": {
        "name": "Bethlehem",
        "country": "New Zealand",
        "region": "Bay of Plenty",
        "elevation_m": null,
        "population": 9270,
        "feature_type": "populated place",
        "geoname_id": 2193370
      }
    },
    {
      "type": "Feature",
      "geometry": {
        "type": "Point",
        "coordinates": [
          174.86655,
          -41.13992
        ]
      },
      "properties": {
        "name": "Cannons Creek",
        "country": "New Zealand",
        "region": "Wellington Region",
        "elevation_m": null,
        "population": 9250,
        "feature_type": "section of populated place",
        "geoname_id": 6244921
      }
    },
    {
      "type": "Feature",
      "geometry": {
        "type": "Point",
        "coordinates": [
          172.48333,
          -43.65
        ]
      },
      "properties": {
        "name": "Lincoln",
        "country": "New Zealand",
        "region": "Canterbury",
        "elevation_m": null,
        "population": 9180,
        "feature_type": "populated place",
        "geoname_id": 2188371
      }
    },
    {
      "type": "Feature",
      "geometry": {
        "type": "Point",
        "coordinates": [
          174.72019,
          -36.9282
        ]
      },
      "properties": {
        "name": "Lynfield",
        "country": "New Zealand",
        "region": "Auckland",
        "elevation_m": null,
        "population": 9130,
        "feature_type": "section of populated place",
        "geoname_id": 6232200
      }
    },
    {
      "type": "Feature",
      "geometry": {
        "type": "Point",
        "coordinates": [
          176.84021,
          -39.61824
        ]
      },
      "properties": {
        "name": "Mahora",
        "country": "New Zealand",
        "region": "Hawke's Bay Region",
        "elevation_m": null,
        "population": 9090,
        "feature_type": "section of populated place",
        "geoname_id": 6246565
      }
    },
    {
      "type": "Feature",
      "geometry": {
        "type": "Point",
        "coordinates": [
          174.87019,
          -36.8582
        ]
      },
      "properties": {
        "name": "Glendowie",
        "country": "New Zealand",
        "region": "Auckland",
        "elevation_m": null,
        "population": 9050,
        "feature_type": "section of populated place",
        "geoname_id": 6232065
      }
    },
    {
      "type": "Feature",
      "geometry": {
        "type": "Point",
        "coordinates": [
          175.58384,
          -40.37624
        ]
      },
      "properties": {
        "name": "Awapuni",
        "country": "New Zealand",
        "region": "Manawatu-Wanganui",
        "elevation_m": null,
        "population": 9050,
        "feature_type": "section of populated place",
        "geoname_id": 6225521
      }
    },
    {
      "type": "Feature",
      "geometry": {
        "type": "Point",
        "coordinates": [
          174.70493,
          -36.86328
        ]
      },
      "properties": {
        "name": "Point Chevalier",
        "country": "New Zealand",
        "region": "Auckland",
        "elevation_m": null,
        "population": 9030,
        "feature_type": "section of populated place",
        "geoname_id": 2184472
      }
    },
    {
      "type": "Feature",
      "geometry": {
        "type": "Point",
        "coordinates": [
          174.82192,
          -41.22444
        ]
      },
      "properties": {
        "name": "Newlands",
        "country": "New Zealand",
        "region": "Wellington Region",
        "elevation_m": null,
        "population": 8880,
        "feature_type": "section of populated place",
        "geoname_id": 6244930
      }
    },
    {
      "type": "Feature",
      "geometry": {
        "type": "Point",
        "coordinates": [
          175.1602,
          -37.55821
        ]
      },
      "properties": {
        "name": "Huntly",
        "country": "New Zealand",
        "region": "Waikato Region",
        "elevation_m": null,
        "population": 8850,
        "feature_type": "populated place",
        "geoname_id": 6249343
      }
    },
    {
      "type": "Feature",
      "geometry": {
        "type": "Point",
        "coordinates": [
          174.68651,
          -36.77081
        ]
      },
      "properties": {
        "name": "Greenhithe",
        "country": "New Zealand",
        "region": "Auckland",
        "elevation_m": null,
        "population": 8820,
        "feature_type": "section of populated place",
        "geoname_id": 6231822
      }
    },
    {
      "type": "Feature",
      "geometry": {
        "type": "Point",
        "coordinates": [
          172.53333,
          -43.55
        ]
      },
      "properties": {
        "name": "Hornby",
        "country": "New Zealand",
        "region": "Canterbury",
        "elevation_m": null,
        "population": 8790,
        "feature_type": "populated place",
        "geoname_id": 2189793
      }
    },
    {
      "type": "Feature",
      "geometry": {
        "type": "Point",
        "coordinates": [
          174.70019,
          -36.8982
        ]
      },
      "properties": {
        "name": "New Windsor",
        "country": "New Zealand",
        "region": "Auckland",
        "elevation_m": null,
        "population": 8730,
        "feature_type": "section of populated place",
        "geoname_id": 6232256
      }
    },
    {
      "type": "Feature",
      "geometry": {
        "type": "Point",
        "coordinates": [
          178.03021,
          -38.66824
        ]
      },
      "properties": {
        "name": "Kaiti",
        "country": "New Zealand",
        "region": "Gisborne",
        "elevation_m": null,
        "population": 8720,
        "feature_type": "section of populated place",
        "geoname_id": 6240088
      }
    },
    {
      "type": "Feature",
      "geometry": {
        "type": "Point",
        "coordinates": [
          175.26667,
          -37.8
        ]
      },
      "properties": {
        "name": "Frankton Junction",
        "country": "New Zealand",
        "region": "Waikato Region",
        "elevation_m": null,
        "population": 8710,
        "feature_type": "section of populated place",
        "geoname_id": 2190929
      }
    },
    {
      "type": "Feature",
      "geometry": {
        "type": "Point",
        "coordinates": [
          177.99021,
          -38.64824
        ]
      },
      "properties": {
        "name": "Te Hapara",
        "country": "New Zealand",
        "region": "Gisborne",
        "elevation_m": null,
        "population": 8670,
        "feature_type": "section of populated place",
        "geoname_id": 6240058
      }
    },
    {
      "type": "Feature",
      "geometry": {
        "type": "Point",
        "coordinates": [
          174.79422,
          -41.245
        ]
      },
      "properties": {
        "name": "Khandallah",
        "country": "New Zealand",
        "region": "Wellington Region",
        "elevation_m": null,
        "population": 8640,
        "feature_type": "populated place",
        "geoname_id": 2188858
      }
    },
    {
      "type": "Feature",
      "geometry": {
        "type": "Point",
        "coordinates": [
          176.13865,
          -37.67156
        ]
      },
      "properties": {
        "name": "Otumoetai",
        "country": "New Zealand",
        "region": "Bay of Plenty",
        "elevation_m": null,
        "population": 8620,
        "feature_type": "populated place",
        "geoname_id": 2185213
      }
    },
    {
      "type": "Feature",
      "geometry": {
        "type": "Point",
        "coordinates": [
          174.56667,
          -36.76667
        ]
      },
      "properties": {
        "name": "Kumeu",
        "country": "New Zealand",
        "region": "Auckland",
        "elevation_m": null,
        "population": 8510,
        "feature_type": "populated place",
        "geoname_id": 2188591
      }
    },
    {
      "type": "Feature",
      "geometry": {
        "type": "Point",
        "coordinates": [
          172.61013,
          -43.46833
        ]
      },
      "properties": {
        "name": "Redwood",
        "country": "New Zealand",
        "region": "Canterbury",
        "elevation_m": null,
        "population": 8500,
        "feature_type": "section of populated place",
        "geoname_id": 6220359
      }
    },
    {
      "type": "Feature",
      "geometry": {
        "type": "Point",
        "coordinates": [
          175.15554,
          -37.66738
        ]
      },
      "properties": {
        "name": "Ngaruawahia",
        "country": "New Zealand",
        "region": "Waikato Region",
        "elevation_m": null,
        "population": 8500,
        "feature_type": "populated place",
        "geoname_id": 6247826
      }
    },
    {
      "type": "Feature",
      "geometry": {
        "type": "Point",
        "coordinates": [
          174.32018,
          -35.68818
        ]
      },
      "properties": {
        "name": "Tikipunga",
        "country": "New Zealand",
        "region": "Northland",
        "elevation_m": null,
        "population": 8440,
        "feature_type": "section of populated place",
        "geoname_id": 6230839
      }
    },
    {
      "type": "Feature",
      "geometry": {
        "type": "Point",
        "coordinates": [
          174.87019,
          -41.22827
        ]
      },
      "properties": {
        "name": "Petone",
        "country": "New Zealand",
        "region": "Wellington Region",
        "elevation_m": null,
        "population": 8370,
        "feature_type": "section of populated place",
        "geoname_id": 6244864
      }
    },
    {
      "type": "Feature",
      "geometry": {
        "type": "Point",
        "coordinates": [
          174.64019,
          -36.8882
        ]
      },
      "properties": {
        "name": "Glendene",
        "country": "New Zealand",
        "region": "Auckland",
        "elevation_m": null,
        "population": 8350,
        "feature_type": "section of populated place",
        "geoname_id": 6232394
      }
    },
    {
      "type": "Feature",
      "geometry": {
        "type": "Point",
        "coordinates": [
          175,
          -36.88333
        ]
      },
      "properties": {
        "name": "Beachlands",
        "country": "New Zealand",
        "region": "Auckland",
        "elevation_m": null,
        "population": 8340,
        "feature_type": "populated place",
        "geoname_id": 2193497
      }
    },
    {
      "type": "Feature",
      "geometry": {
        "type": "Point",
        "coordinates": [
          168.95009,
          -46.0884
        ]
      },
      "properties": {
        "name": "East Gore",
        "country": "New Zealand",
        "region": "Southland",
        "elevation_m": null,
        "population": 8340,
        "feature_type": "section of populated place",
        "geoname_id": 6206648
      }
    },
    {
      "type": "Feature",
      "geometry": {
        "type": "Point",
        "coordinates": [
          174.89019,
          -36.8782
        ]
      },
      "properties": {
        "name": "Half Moon Bay",
        "country": "New Zealand",
        "region": "Auckland",
        "elevation_m": null,
        "population": 8330,
        "feature_type": "section of populated place",
        "geoname_id": 6232087
      }
    },
    {
      "type": "Feature",
      "geometry": {
        "type": "Point",
        "coordinates": [
          174.80733,
          -41.20662
        ]
      },
      "properties": {
        "name": "Churton Park",
        "country": "New Zealand",
        "region": "Wellington Region",
        "elevation_m": null,
        "population": 8290,
        "feature_type": "section of populated place",
        "geoname_id": 6244944
      }
    },
    {
      "type": "Feature",
      "geometry": {
        "type": "Point",
        "coordinates": [
          173.94739,
          -35.22676
        ]
      },
      "properties": {
        "name": "Kerikeri",
        "country": "New Zealand",
        "region": "Northland",
        "elevation_m": null,
        "population": 8280,
        "feature_type": "populated place",
        "geoname_id": 2188874
      }
    },
    {
      "type": "Feature",
      "geometry": {
        "type": "Point",
        "coordinates": [
          174.15,
          -39.03333
        ]
      },
      "properties": {
        "name": "Bell Block",
        "country": "New Zealand",
        "region": "Taranaki Region",
        "elevation_m": null,
        "population": 8260,
        "feature_type": "populated place",
        "geoname_id": 2193449
      }
    },
    {
      "type": "Feature",
      "geometry": {
        "type": "Point",
        "coordinates": [
          172.57013,
          -43.52833
        ]
      },
      "properties": {
        "name": "Upper Riccarton",
        "country": "New Zealand",
        "region": "Canterbury",
        "elevation_m": null,
        "population": 7990,
        "feature_type": "section of populated place",
        "geoname_id": 6220347
      }
    },
    {
      "type": "Feature",
      "geometry": {
        "type": "Point",
        "coordinates": [
          175.64512,
          -40.32875
        ]
      },
      "properties": {
        "name": "Kelvin Grove",
        "country": "New Zealand",
        "region": "Manawatu-Wanganui",
        "elevation_m": null,
        "population": 7950,
        "feature_type": "populated place",
        "geoname_id": 2188909
      }
    },
    {
      "type": "Feature",
      "geometry": {
        "type": "Point",
        "coordinates": [
          172.61667,
          -43.5
        ]
      },
      "properties": {
        "name": "Papanui",
        "country": "New Zealand",
        "region": "Canterbury",
        "elevation_m": null,
        "population": 7900,
        "feature_type": "section of populated place",
        "geoname_id": 2184972
      }
    },
    {
      "type": "Feature",
      "geometry": {
        "type": "Point",
        "coordinates": [
          174.23836,
          -39.00158
        ]
      },
      "properties": {
        "name": "Waitara",
        "country": "New Zealand",
        "region": "Taranaki Region",
        "elevation_m": null,
        "population": 7730,
        "feature_type": "populated place",
        "geoname_id": 2208091
      }
    },
    {
      "type": "Feature",
      "geometry": {
        "type": "Point",
        "coordinates": [
          174.78333,
          -36.86667
        ]
      },
      "properties": {
        "name": "Parnell",
        "country": "New Zealand",
        "region": "Auckland",
        "elevation_m": null,
        "population": 7720,
        "feature_type": "populated place",
        "geoname_id": 2184846
      }
    },
    {
      "type": "Feature",
      "geometry": {
        "type": "Point",
        "coordinates": [
          176.7,
          -38.1
        ]
      },
      "properties": {
        "name": "Kawerau",
        "country": "New Zealand",
        "region": "Bay of Plenty",
        "elevation_m": null,
        "population": 7670,
        "feature_type": "populated place",
        "geoname_id": 2188942
      }
    },
    {
      "type": "Feature",
      "geometry": {
        "type": "Point",
        "coordinates": [
          168.36009,
          -46.38841
        ]
      },
      "properties": {
        "name": "Rosedale",
        "country": "New Zealand",
        "region": "Southland",
        "elevation_m": null,
        "population": 7620,
        "feature_type": "section of populated place",
        "geoname_id": 6205093
      }
    },
    {
      "type": "Feature",
      "geometry": {
        "type": "Point",
        "coordinates": [
          174.77476,
          -41.30151
        ]
      },
      "properties": {
        "name": "Mount Cook",
        "country": "New Zealand",
        "region": "Wellington Region",
        "elevation_m": null,
        "population": 7510,
        "feature_type": "section of populated place",
        "geoname_id": 6244801
      }
    },
    {
      "type": "Feature",
      "geometry": {
        "type": "Point",
        "coordinates": [
          173.01667,
          -41.13333
        ]
      },
      "properties": {
        "name": "Motueka",
        "country": "New Zealand",
        "region": "Tasman District",
        "elevation_m": null,
        "population": 7485,
        "feature_type": "populated place",
        "geoname_id": 2184361
      }
    },
    {
      "type": "Feature",
      "geometry": {
        "type": "Point",
        "coordinates": [
          175.6102,
          -40.95827
        ]
      },
      "properties": {
        "name": "Solway",
        "country": "New Zealand",
        "region": "Wellington Region",
        "elevation_m": null,
        "population": 7430,
        "feature_type": "section of populated place",
        "geoname_id": 6241104
      }
    },
    {
      "type": "Feature",
      "geometry": {
        "type": "Point",
        "coordinates": [
          176.88958,
          -39.50914
        ]
      },
      "properties": {
        "name": "Onekawa",
        "country": "New Zealand",
        "region": "Hawke's Bay Region",
        "elevation_m": null,
        "population": 7290,
        "feature_type": "populated place",
        "geoname_id": 2185587
      }
    },
    {
      "type": "Feature",
      "geometry": {
        "type": "Point",
        "coordinates": [
          176.18611,
          -37.64167
        ]
      },
      "properties": {
        "name": "Mount Maunganui",
        "country": "New Zealand",
        "region": "Bay of Plenty",
        "elevation_m": null,
        "population": 7250,
        "feature_type": "populated place",
        "geoname_id": 2208041
      }
    },
    {
      "type": "Feature",
      "geometry": {
        "type": "Point",
        "coordinates": [
          175.28333,
          -37.78333
        ]
      },
      "properties": {
        "name": "Claudelands",
        "country": "New Zealand",
        "region": "Waikato Region",
        "elevation_m": null,
        "population": 7180,
        "feature_type": "populated place",
        "geoname_id": 2192313
      }
    },
    {
      "type": "Feature",
      "geometry": {
        "type": "Point",
        "coordinates": [
          174.77351,
          -41.33616
        ]
      },
      "properties": {
        "name": "Island Bay",
        "country": "New Zealand",
        "region": "Wellington Region",
        "elevation_m": null,
        "population": 7170,
        "feature_type": "section of populated place",
        "geoname_id": 6244598
      }
    },
    {
      "type": "Feature",
      "geometry": {
        "type": "Point",
        "coordinates": [
          175.54011,
          -37.13832
        ]
      },
      "properties": {
        "name": "Thames",
        "country": "New Zealand",
        "region": "Waikato Region",
        "elevation_m": null,
        "population": 7136,
        "feature_type": "populated place",
        "geoname_id": 2208333
      }
    },
    {
      "type": "Feature",
      "geometry": {
        "type": "Point",
        "coordinates": [
          172.64013,
          -43.49833
        ]
      },
      "properties": {
        "name": "Mairehau",
        "country": "New Zealand",
        "region": "Canterbury",
        "elevation_m": null,
        "population": 7120,
        "feature_type": "section of populated place",
        "geoname_id": 6220360
      }
    },
    {
      "type": "Feature",
      "geometry": {
        "type": "Point",
        "coordinates": [
          172.63131,
          -43.55931
        ]
      },
      "properties": {
        "name": "Somerfield",
        "country": "New Zealand",
        "region": "Canterbury",
        "elevation_m": null,
        "population": 7070,
        "feature_type": "section of populated place",
        "geoname_id": 6220884
      }
    },
    {
      "type": "Feature",
      "geometry": {
        "type": "Point",
        "coordinates": [
          172.65013,
          -43.49833
        ]
      },
      "properties": {
        "name": "Shirley",
        "country": "New Zealand",
        "region": "Canterbury",
        "elevation_m": null,
        "population": 6990,
        "feature_type": "section of populated place",
        "geoname_id": 6220363
      }
    },
    {
      "type": "Feature",
      "geometry": {
        "type": "Point",
        "coordinates": [
          174.66667,
          -36.4
        ]
      },
      "properties": {
        "name": "Warkworth",
        "country": "New Zealand",
        "region": "Auckland",
        "elevation_m": null,
        "population": 6960,
        "feature_type": "populated place",
        "geoname_id": 2179639
      }
    },
    {
      "type": "Feature",
      "geometry": {
        "type": "Point",
        "coordinates": [
          174.9502,
          -41.17827
        ]
      },
      "properties": {
        "name": "Taita",
        "country": "New Zealand",
        "region": "Wellington Region",
        "elevation_m": null,
        "population": 6960,
        "feature_type": "section of populated place",
        "geoname_id": 6244874
      }
    },
    {
      "type": "Feature",
      "geometry": {
        "type": "Point",
        "coordinates": [
          172.628,
          -43.5678
        ]
      },
      "properties": {
        "name": "Cashmere",
        "country": "New Zealand",
        "region": "Canterbury",
        "elevation_m": null,
        "population": 6940,
        "feature_type": "section of populated place",
        "geoname_id": 6220896
      }
    },
    {
      "type": "Feature",
      "geometry": {
        "type": "Point",
        "coordinates": [
          174.93043,
          -41.20263
        ]
      },
      "properties": {
        "name": "Epuni",
        "country": "New Zealand",
        "region": "Wellington Region",
        "elevation_m": null,
        "population": 6940,
        "feature_type": "section of populated place",
        "geoname_id": 6244867
      }
    },
    {
      "type": "Feature",
      "geometry": {
        "type": "Point",
        "coordinates": [
          174.36667,
          -35.76667
        ]
      },
      "properties": {
        "name": "Onerahi",
        "country": "New Zealand",
        "region": "Northland",
        "elevation_m": null,
        "population": 6830,
        "feature_type": "populated place",
        "geoname_id": 2185579
      }
    },
    {
      "type": "Feature",
      "geometry": {
        "type": "Point",
        "coordinates": [
          174.83333,
          -41.1
        ]
      },
      "properties": {
        "name": "Titahi Bay",
        "country": "New Zealand",
        "region": "Wellington Region",
        "elevation_m": null,
        "population": 6810,
        "feature_type": "populated place",
        "geoname_id": 2181073
      }
    },
    {
      "type": "Feature",
      "geometry": {
        "type": "Point",
        "coordinates": [
          171.74011,
          -43.88833
        ]
      },
      "properties": {
        "name": "Allenton",
        "country": "New Zealand",
        "region": "Canterbury",
        "elevation_m": null,
        "population": 6789,
        "feature_type": "section of populated place",
        "geoname_id": 6217203
      }
    },
    {
      "type": "Feature",
      "geometry": {
        "type": "Point",
        "coordinates": [
          174.86019,
          -36.9982
        ]
      },
      "properties": {
        "name": "Wiri",
        "country": "New Zealand",
        "region": "Auckland",
        "elevation_m": null,
        "population": 6760,
        "feature_type": "section of populated place",
        "geoname_id": 6232063
      }
    },
    {
      "type": "Feature",
      "geometry": {
        "type": "Point",
        "coordinates": [
          175.63021,
          -40.34825
        ]
      },
      "properties": {
        "name": "Terrace End",
        "country": "New Zealand",
        "region": "Manawatu-Wanganui",
        "elevation_m": null,
        "population": 6740,
        "feature_type": "section of populated place",
        "geoname_id": 6227744
      }
    },
    {
      "type": "Feature",
      "geometry": {
        "type": "Point",
        "coordinates": [
          175.61021,
          -40.32825
        ]
      },
      "properties": {
        "name": "Milson",
        "country": "New Zealand",
        "region": "Manawatu-Wanganui",
        "elevation_m": null,
        "population": 6740,
        "feature_type": "section of populated place",
        "geoname_id": 6227745
      }
    },
    {
      "type": "Feature",
      "geometry": {
        "type": "Point",
        "coordinates": [
          174.63019,
          -36.8882
        ]
      },
      "properties": {
        "name": "Sunnyvale",
        "country": "New Zealand",
        "region": "Auckland",
        "elevation_m": null,
        "population": 6690,
        "feature_type": "section of populated place",
        "geoname_id": 6231930
      }
    },
    {
      "type": "Feature",
      "geometry": {
        "type": "Point",
        "coordinates": [
          174.7215,
          -36.75374
        ]
      },
      "properties": {
        "name": "Unsworth Heights",
        "country": "New Zealand",
        "region": "Auckland",
        "elevation_m": null,
        "population": 6620,
        "feature_type": "populated place",
        "geoname_id": 8469227
      }
    },
    {
      "type": "Feature",
      "geometry": {
        "type": "Point",
        "coordinates": [
          169.47068,
          -46.56069
        ]
      },
      "properties": {
        "name": "Papatowai",
        "country": "New Zealand",
        "region": "Otago",
        "elevation_m": null,
        "population": 6593,
        "feature_type": "populated place",
        "geoname_id": 2184943
      }
    },
    {
      "type": "Feature",
      "geometry": {
        "type": "Point",
        "coordinates": [
          172.73333,
          -43.51667
        ]
      },
      "properties": {
        "name": "New Brighton",
        "country": "New Zealand",
        "region": "Canterbury",
        "elevation_m": null,
        "population": 6480,
        "feature_type": "populated place",
        "geoname_id": 2186255
      }
    },
    {
      "type": "Feature",
      "geometry": {
        "type": "Point",
        "coordinates": [
          174.28368,
          -39.33762
        ]
      },
      "properties": {
        "name": "Stratford",
        "country": "New Zealand",
        "region": "Taranaki Region",
        "elevation_m": null,
        "population": 6430,
        "feature_type": "populated place",
        "geoname_id": 6223846
      }
    },
    {
      "type": "Feature",
      "geometry": {
        "type": "Point",
        "coordinates": [
          175.76237,
          -37.8106
        ]
      },
      "properties": {
        "name": "Matamata",
        "country": "New Zealand",
        "region": "Waikato Region",
        "elevation_m": null,
        "population": 6306,
        "feature_type": "populated place",
        "geoname_id": 6235764
      }
    },
    {
      "type": "Feature",
      "geometry": {
        "type": "Point",
        "coordinates": [
          174.84019,
          -36.8682
        ]
      },
      "properties": {
        "name": "Saint Johns",
        "country": "New Zealand",
        "region": "Auckland",
        "elevation_m": null,
        "population": 6300,
        "feature_type": "section of populated place",
        "geoname_id": 6232303
      }
    },
    {
      "type": "Feature",
      "geometry": {
        "type": "Point",
        "coordinates": [
          174.95019,
          -41.26828
        ]
      },
      "properties": {
        "name": "Homedale",
        "country": "New Zealand",
        "region": "Wellington Region",
        "elevation_m": null,
        "population": 6270,
        "feature_type": "section of populated place",
        "geoname_id": 6244842
      }
    },
    {
      "type": "Feature",
      "geometry": {
        "type": "Point",
        "coordinates": [
          172.63594,
          -43.54696
        ]
      },
      "properties": {
        "name": "Sydenham",
        "country": "New Zealand",
        "region": "Canterbury",
        "elevation_m": null,
        "population": 6243,
        "feature_type": "section of populated place",
        "geoname_id": 2182123
      }
    },
    {
      "type": "Feature",
      "geometry": {
        "type": "Point",
        "coordinates": [
          175.7,
          -36.83333
        ]
      },
      "properties": {
        "name": "Whitianga",
        "country": "New Zealand",
        "region": "Waikato Region",
        "elevation_m": null,
        "population": 6230,
        "feature_type": "populated place",
        "geoname_id": 2179103
      }
    },
    {
      "type": "Feature",
      "geometry": {
        "type": "Point",
        "coordinates": [
          173.93726,
          -41.50851
        ]
      },
      "properties": {
        "name": "Springlands",
        "country": "New Zealand",
        "region": "Marlborough",
        "elevation_m": null,
        "population": 6200,
        "feature_type": "section of populated place",
        "geoname_id": 6243927
      }
    },
    {
      "type": "Feature",
      "geometry": {
        "type": "Point",
        "coordinates": [
          174.94384,
          -37.27047
        ]
      },
      "properties": {
        "name": "Tuakau",
        "country": "New Zealand",
        "region": "Waikato Region",
        "elevation_m": null,
        "population": 6180,
        "feature_type": "populated place",
        "geoname_id": 2180831
      }
    },
    {
      "type": "Feature",
      "geometry": {
        "type": "Point",
        "coordinates": [
          174.0802,
          -39.07824
        ]
      },
      "properties": {
        "name": "Vogeltown",
        "country": "New Zealand",
        "region": "Taranaki Region",
        "elevation_m": null,
        "population": 6140,
        "feature_type": "section of populated place",
        "geoname_id": 6222901
      }
    },
    {
      "type": "Feature",
      "geometry": {
        "type": "Point",
        "coordinates": [
          174.77019,
          -36.9082
        ]
      },
      "properties": {
        "name": "Royal Oak",
        "country": "New Zealand",
        "region": "Auckland",
        "elevation_m": null,
        "population": 6090,
        "feature_type": "section of populated place",
        "geoname_id": 6232213
      }
    },
    {
      "type": "Feature",
      "geometry": {
        "type": "Point",
        "coordinates": [
          175.15,
          -40.75833
        ]
      },
      "properties": {
        "name": "Otaki",
        "country": "New Zealand",
        "region": "Wellington Region",
        "elevation_m": null,
        "population": 6086,
        "feature_type": "populated place",
        "geoname_id": 2206372
      }
    },
    {
      "type": "Feature",
      "geometry": {
        "type": "Point",
        "coordinates": [
          175.58968,
          -40.35793
        ]
      },
      "properties": {
        "name": "Takaro",
        "country": "New Zealand",
        "region": "Manawatu-Wanganui",
        "elevation_m": null,
        "population": 6080,
        "feature_type": "section of populated place",
        "geoname_id": 6227748
      }
    },
    {
      "type": "Feature",
      "geometry": {
        "type": "Point",
        "coordinates": [
          173.95018,
          -41.52828
        ]
      },
      "properties": {
        "name": "Witherlea",
        "country": "New Zealand",
        "region": "Marlborough",
        "elevation_m": null,
        "population": 6060,
        "feature_type": "section of populated place",
        "geoname_id": 6243931
      }
    },
    {
      "type": "Feature",
      "geometry": {
        "type": "Point",
        "coordinates": [
          175.91667,
          -37.55
        ]
      },
      "properties": {
        "name": "Katikati",
        "country": "New Zealand",
        "region": "Bay of Plenty",
        "elevation_m": null,
        "population": 6000,
        "feature_type": "populated place",
        "geoname_id": 2189016
      }
    },
    {
      "type": "Feature",
      "geometry": {
        "type": "Point",
        "coordinates": [
          174.71019,
          -36.8882
        ]
      },
      "properties": {
        "name": "Owairaka",
        "country": "New Zealand",
        "region": "Auckland",
        "elevation_m": null,
        "population": 6000,
        "feature_type": "section of populated place",
        "geoname_id": 6232258
      }
    },
    {
      "type": "Feature",
      "geometry": {
        "type": "Point",
        "coordinates": [
          176.03497,
          -37.64849
        ]
      },
      "properties": {
        "name": "Omokoroa",
        "country": "New Zealand",
        "region": "Bay of Plenty",
        "elevation_m": null,
        "population": 5990,
        "feature_type": "populated place",
        "geoname_id": 2185613
      }
    },
    {
      "type": "Feature",
      "geometry": {
        "type": "Point",
        "coordinates": [
          174.30578,
          -35.74488
        ]
      },
      "properties": {
        "name": "Raumanga",
        "country": "New Zealand",
        "region": "Northland",
        "elevation_m": null,
        "population": 5960,
        "feature_type": "section of populated place",
        "geoname_id": 6230952
      }
    },
    {
      "type": "Feature",
      "geometry": {
        "type": "Point",
        "coordinates": [
          174.9256,
          -41.2155
        ]
      },
      "properties": {
        "name": "Waterloo",
        "country": "New Zealand",
        "region": "Wellington Region",
        "elevation_m": null,
        "population": 5950,
        "feature_type": "section of populated place",
        "geoname_id": 6244866
      }
    },
    {
      "type": "Feature",
      "geometry": {
        "type": "Point",
        "coordinates": [
          174.88019,
          -36.8982
        ]
      },
      "properties": {
        "name": "Sunnyhills",
        "country": "New Zealand",
        "region": "Auckland",
        "elevation_m": null,
        "population": 5880,
        "feature_type": "section of populated place",
        "geoname_id": 6249030
      }
    },
    {
      "type": "Feature",
      "geometry": {
        "type": "Point",
        "coordinates": [
          174.71824,
          -36.7201
        ]
      },
      "properties": {
        "name": "Oteha Valley",
        "country": "New Zealand",
        "region": "Auckland",
        "elevation_m": null,
        "population": 5850,
        "feature_type": "populated place",
        "geoname_id": 8469230
      }
    },
    {
      "type": "Feature",
      "geometry": {
        "type": "Point",
        "coordinates": [
          169.37008,
          -45.24837
        ]
      },
      "properties": {
        "name": "Alexandra",
        "country": "New Zealand",
        "region": "Otago",
        "elevation_m": null,
        "population": 5830,
        "feature_type": "populated place",
        "geoname_id": 6207905
      }
    },
    {
      "type": "Feature",
      "geometry": {
        "type": "Point",
        "coordinates": [
          174.91788,
          -36.90596
        ]
      },
      "properties": {
        "name": "Botany Downs",
        "country": "New Zealand",
        "region": "Auckland",
        "elevation_m": null,
        "population": 5820,
        "feature_type": "section of populated place",
        "geoname_id": 6232075
      }
    },
    {
      "type": "Feature",
      "geometry": {
        "type": "Point",
        "coordinates": [
          174.66019,
          -36.8982
        ]
      },
      "properties": {
        "name": "Kelston",
        "country": "New Zealand",
        "region": "Auckland",
        "elevation_m": null,
        "population": 5750,
        "feature_type": "section of populated place",
        "geoname_id": 6232301
      }
    },
    {
      "type": "Feature",
      "geometry": {
        "type": "Point",
        "coordinates": [
          175.37823,
          -40.0692
        ]
      },
      "properties": {
        "name": "Marton",
        "country": "New Zealand",
        "region": "Manawatu-Wanganui",
        "elevation_m": null,
        "population": 5740,
        "feature_type": "populated place",
        "geoname_id": 6224624
      }
    },
    {
      "type": "Feature",
      "geometry": {
        "type": "Point",
        "coordinates": [
          176.82021,
          -39.63824
        ]
      },
      "properties": {
        "name": "Raureka",
        "country": "New Zealand",
        "region": "Hawke's Bay Region",
        "elevation_m": null,
        "population": 5720,
        "feature_type": "section of populated place",
        "geoname_id": 6246706
      }
    },
    {
      "type": "Feature",
      "geometry": {
        "type": "Point",
        "coordinates": [
          170.50176,
          -45.90188
        ]
      },
      "properties": {
        "name": "Saint Kilda",
        "country": "New Zealand",
        "region": "Otago",
        "elevation_m": null,
        "population": 5710,
        "feature_type": "section of populated place",
        "geoname_id": 6212213
      }
    },
    {
      "type": "Feature",
      "geometry": {
        "type": "Point",
        "coordinates": [
          176.10084,
          -40.20549
        ]
      },
      "properties": {
        "name": "Dannevirke",
        "country": "New Zealand",
        "region": "Manawatu-Wanganui",
        "elevation_m": null,
        "population": 5680,
        "feature_type": "populated place",
        "geoname_id": 6246205
      }
    },
    {
      "type": "Feature",
      "geometry": {
        "type": "Point",
        "coordinates": [
          172.7,
          -43.5
        ]
      },
      "properties": {
        "name": "Burwood",
        "country": "New Zealand",
        "region": "Canterbury",
        "elevation_m": null,
        "population": 5661,
        "feature_type": "section of populated place",
        "geoname_id": 2192779
      }
    },
    {
      "type": "Feature",
      "geometry": {
        "type": "Point",
        "coordinates": [
          174.77394,
          -41.25039
        ]
      },
      "properties": {
        "name": "Ngaio",
        "country": "New Zealand",
        "region": "Wellington Region",
        "elevation_m": null,
        "population": 5660,
        "feature_type": "populated place",
        "geoname_id": 2186216
      }
    },
    {
      "type": "Feature",
      "geometry": {
        "type": "Point",
        "coordinates": [
          174.7942,
          -41.30431
        ]
      },
      "properties": {
        "name": "Hataitai",
        "country": "New Zealand",
        "region": "Wellington Region",
        "elevation_m": null,
        "population": 5620,
        "feature_type": "section of populated place",
        "geoname_id": 6244802
      }
    },
    {
      "type": "Feature",
      "geometry": {
        "type": "Point",
        "coordinates": [
          174.92019,
          -41.19827
        ]
      },
      "properties": {
        "name": "Avalon",
        "country": "New Zealand",
        "region": "Wellington Region",
        "elevation_m": null,
        "population": 5590,
        "feature_type": "section of populated place",
        "geoname_id": 6244873
      }
    },
    {
      "type": "Feature",
      "geometry": {
        "type": "Point",
        "coordinates": [
          174.73333,
          -36.85
        ]
      },
      "properties": {
        "name": "Ponsonby",
        "country": "New Zealand",
        "region": "Auckland",
        "elevation_m": null,
        "population": 5570,
        "feature_type": "section of populated place",
        "geoname_id": 2184426
      }
    },
    {
      "type": "Feature",
      "geometry": {
        "type": "Point",
        "coordinates": [
          174.82019,
          -36.8682
        ]
      },
      "properties": {
        "name": "Meadowbank",
        "country": "New Zealand",
        "region": "Auckland",
        "elevation_m": null,
        "population": 5570,
        "feature_type": "section of populated place",
        "geoname_id": 6232304
      }
    },
    {
      "type": "Feature",
      "geometry": {
        "type": "Point",
        "coordinates": [
          169.88333,
          -43.45
        ]
      },
      "properties": {
        "name": "Waikowhai",
        "country": "New Zealand",
        "region": "West Coast",
        "elevation_m": null,
        "population": 5550,
        "feature_type": "populated place",
        "geoname_id": 2180221
      }
    },
    {
      "type": "Feature",
      "geometry": {
        "type": "Point",
        "coordinates": [
          175.59843,
          -40.3659
        ]
      },
      "properties": {
        "name": "West End",
        "country": "New Zealand",
        "region": "Manawatu-Wanganui",
        "elevation_m": null,
        "population": 5510,
        "feature_type": "section of populated place",
        "geoname_id": 6227743
      }
    },
    {
      "type": "Feature",
      "geometry": {
        "type": "Point",
        "coordinates": [
          172.66667,
          -43.31667
        ]
      },
      "properties": {
        "name": "Woodend",
        "country": "New Zealand",
        "region": "Canterbury",
        "elevation_m": null,
        "population": 5430,
        "feature_type": "populated place",
        "geoname_id": 2178982
      }
    },
    {
      "type": "Feature",
      "geometry": {
        "type": "Point",
        "coordinates": [
          174.98333,
          -40.91667
        ]
      },
      "properties": {
        "name": "Raumati Beach",
        "country": "New Zealand",
        "region": "Wellington Region",
        "elevation_m": null,
        "population": 5390,
        "feature_type": "populated place",
        "geoname_id": 2183620
      }
    },
    {
      "type": "Feature",
      "geometry": {
        "type": "Point",
        "coordinates": [
          172.61013,
          -43.50833
        ]
      },
      "properties": {
        "name": "Merivale",
        "country": "New Zealand",
        "region": "Canterbury",
        "elevation_m": null,
        "population": 5360,
        "feature_type": "section of populated place",
        "geoname_id": 6220356
      }
    },
    {
      "type": "Feature",
      "geometry": {
        "type": "Point",
        "coordinates": [
          172.61667,
          -43.55
        ]
      },
      "properties": {
        "name": "Addington",
        "country": "New Zealand",
        "region": "Canterbury",
        "elevation_m": null,
        "population": 5346,
        "feature_type": "section of populated place",
        "geoname_id": 2194121
      }
    },
    {
      "type": "Feature",
      "geometry": {
        "type": "Point",
        "coordinates": [
          174.76585,
          -36.77158
        ]
      },
      "properties": {
        "name": "Milford",
        "country": "New Zealand",
        "region": "Auckland",
        "elevation_m": null,
        "population": 5290,
        "feature_type": "section of populated place",
        "geoname_id": 6231830
      }
    },
    {
      "type": "Feature",
      "geometry": {
        "type": "Point",
        "coordinates": [
          172.59013,
          -43.47833
        ]
      },
      "properties": {
        "name": "Casebrook",
        "country": "New Zealand",
        "region": "Canterbury",
        "elevation_m": null,
        "population": 5262,
        "feature_type": "section of populated place",
        "geoname_id": 6220358
      }
    },
    {
      "type": "Feature",
      "geometry": {
        "type": "Point",
        "coordinates": [
          172.51667,
          -43.58333
        ]
      },
      "properties": {
        "name": "Prebbleton",
        "country": "New Zealand",
        "region": "Canterbury",
        "elevation_m": 50,
        "population": 5260,
        "feature_type": "populated place",
        "geoname_id": 2184297
      }
    },
    {
      "type": "Feature",
      "geometry": {
        "type": "Point",
        "coordinates": [
          176.2,
          -38.08333
        ]
      },
      "properties": {
        "name": "Ngongotaha",
        "country": "New Zealand",
        "region": "Bay of Plenty",
        "elevation_m": null,
        "population": 5240,
        "feature_type": "populated place",
        "geoname_id": 2186116
      }
    },
    {
      "type": "Feature",
      "geometry": {
        "type": "Point",
        "coordinates": [
          176.84021,
          -39.64824
        ]
      },
      "properties": {
        "name": "Akina",
        "country": "New Zealand",
        "region": "Hawke's Bay Region",
        "elevation_m": null,
        "population": 5193,
        "feature_type": "section of populated place",
        "geoname_id": 6246563
      }
    },
    {
      "type": "Feature",
      "geometry": {
        "type": "Point",
        "coordinates": [
          178.01021,
          -38.63824
        ]
      },
      "properties": {
        "name": "Mangapapa",
        "country": "New Zealand",
        "region": "Gisborne",
        "elevation_m": null,
        "population": 5160,
        "feature_type": "section of populated place",
        "geoname_id": 6240057
      }
    },
    {
      "type": "Feature",
      "geometry": {
        "type": "Point",
        "coordinates": [
          174.86019,
          -36.8882
        ]
      },
      "properties": {
        "name": "Tamaki",
        "country": "New Zealand",
        "region": "Auckland",
        "elevation_m": null,
        "population": 5160,
        "feature_type": "section of populated place",
        "geoname_id": 6232217
      }
    },
    {
      "type": "Feature",
      "geometry": {
        "type": "Point",
        "coordinates": [
          169.20008,
          -45.03837
        ]
      },